{"version": 0.6, "generator": "Overpass API 0.7.62.1 084b4234", "osm3s": {"timestamp_osm_base": "2024-05-26T17:57:59Z", "copyright": "The data included in this document is from www.openstreetmap.org. The data is made available under ODbL."}, "elements": [{"type": "node", "id": 306677455, "lat": 45.0325306, "lon": 23.271195, "tags": {"amenity": "hospital", "emergency": "yes", "name": "Spitalul Municipal"}}, {"type": "node", "id": 613551256, "lat": 45.0401597, "lon": 23.2745341, "tags": {"addr:city": "T\u00e2rgu Jiu", "addr:housenumber": "17", "addr:street": "Strada Tudor Vladimirescu", "amenity": "hospital", "emergency": "yes", "healthcare": "hospital", "name": "Spitalul Jude\u021bean Tudor Vladimirescu", "website": "https://www.spitalgorj.ro"}}, {"type": "node", "id": 4359319208, "lat": 45.0427947, "lon": 23.2750192}, {"type": "node", "id": 4359319430, "lat": 45.0429365, "lon": 23.2747381}, {"type": "node", "id": 4359319526, "lat": 45.0428464, "lon": 23.2747081}, {"type": "node", "id": 4359319534, "lat": 45.0428847, "lon": 23.2750492}, {"type": "node", "id": 8278665016, "lat": 45.0336375, "lon": 23.2780695, "tags": {"amenity": "clinic", "healthcare": "clinic", "healthcare:speciality": "ophthalmology;orthopaedics;plastic_surgery", "level": "0", "name": "MBN Clinic"}}, {"type": "node", "id": 8278942204, "lat": 45.0328359, "lon": 23.2704296, "tags": {"amenity": "clinic", "healthcare": "clinic", "healthcare:speciality": "neurology;allergology;orthopaedics;psychiatry", "name": "MedoClinic"}}, {"type": "way", "id": 438199753, "nodes": [4359319430, 4359319526, 4359319208, 4359319534, 4359319430], "tags": {"addr:city": "T\u00e2rgu Jiu", "addr:housenumber": "9", "addr:street": "Strada General Christian Tell", "amenity": "clinic", "building": "yes", "healthcare": "clinic", "healthcare:speciality": "ophthalmology;orthopaedics;cardiology;dermatology", "name": "Life Scan", "phone": "+40353413202", "website": "https://lifescan.ro/"}}]}