{"version": 0.6, "generator": "Overpass API 0.7.62.1 084b4234", "osm3s": {"timestamp_osm_base": "2024-05-23T15:30:02Z", "copyright": "The data included in this document is from www.openstreetmap.org. The data is made available under ODbL."}, "elements": [{"type": "node", "id": 2607709605, "lat": 44.3060747, "lon": 23.8178054}, {"type": "node", "id": 2607710330, "lat": 44.3062227, "lon": 23.8175597}, {"type": "node", "id": 2607710331, "lat": 44.3062577, "lon": 23.81769}, {"type": "node", "id": 2607710333, "lat": 44.3060462, "lon": 23.817669}, {"type": "node", "id": 3166981767, "lat": 44.3064905, "lon": 23.791116, "tags": {"amenity": "clinic", "name": "Synevo"}}, {"type": "node", "id": 3217141720, "lat": 44.3083872, "lon": 23.8028627, "tags": {"amenity": "clinic", "name": "Centrul Medical de Nefrologie \u0219i Dializ\u0103"}}, {"type": "node", "id": 3217141728, "lat": 44.3098349, "lon": 23.7963748, "tags": {"addr:city": "Craiova", "addr:street": "Calea Unirii", "amenity": "clinic", "healthcare": "clinic", "name": "Policlinica Bunavestire"}}, {"type": "node", "id": 3217141729, "lat": 44.3129928, "lon": 23.7959135, "tags": {"amenity": "clinic", "name": "Policlinica Medsan"}}, {"type": "node", "id": 3218834789, "lat": 44.312365, "lon": 23.7929271, "tags": {"addr:city": "Craiova", "addr:street": "Strada Gheorghe Doja", "amenity": "clinic", "healthcare": "clinic", "name": "SPAD"}}, {"type": "node", "id": 3226299140, "lat": 44.3129057, "lon": 23.8017601, "tags": {"amenity": "clinic", "name": "Centrul Medical Rena\u0219terea"}}, {"type": "node", "id": 3226299145, "lat": 44.3087652, "lon": 23.8049993, "tags": {"amenity": "clinic", "name": "Policlinica Medaura"}}, {"type": "node", "id": 3226299147, "lat": 44.3138242, "lon": 23.8018177, "tags": {"amenity": "clinic", "name": "Signal Iduna"}}, {"type": "node", "id": 3227962058, "lat": 44.3261593, "lon": 23.7873051, "tags": {"addr:city": "Craiova", "addr:housenumber": "52", "addr:street": "Bulevardul Nicolae Titulescu", "amenity": "clinic", "healthcare": "clinic", "healthcare:speciality": "internal;dermatology;ophthalmology;paediatrics;psychiatry;cardiology;neurology;diabetology;stomatology;pulmonology;urology;endocrinology;gastroenterology;surgery;rheumatology;orthodontics;dental_oral_maxillo_facial_surgery;occupational", "name": "Centrul Medical Camen", "name:en": "Camen Medical Center", "name:ro": "Centrul Medical Camen", "opening_hours": "Mo-Fr 08:00-20:00", "phone": "0351420130;0251563328;0371340667", "website": "https://camen.ro"}}, {"type": "node", "id": 3229736257, "lat": 44.3256942, "lon": 23.7885, "tags": {"addr:city": "Craiova", "addr:street": "Bulevardul Nicolae Titulescu", "amenity": "clinic", "healthcare": "clinic", "name": "Clinica Dr. Camelia P\u0103tru"}}, {"type": "node", "id": 3229749680, "lat": 44.310012, "lon": 23.803804, "tags": {"addr:housenumber": "23A", "addr:street": "Strada Caracal", "amenity": "clinic", "name": "Centrul de Oncologie Sf\u00e2ntul Nectarie Craiova"}}, {"type": "node", "id": 3243467309, "lat": 44.3178498, "lon": 23.7900822, "tags": {"amenity": "clinic", "healthcare": "clinic", "name": "Terrapsi"}}, {"type": "node", "id": 3243467626, "lat": 44.3257971, "lon": 23.7782146, "tags": {"addr:city": "Craiova", "addr:street": "Strada Maria T\u0103nase", "amenity": "clinic", "name": "ENDOlife"}}, {"type": "node", "id": 3244664004, "lat": 44.3100597, "lon": 23.8201461, "tags": {"amenity": "clinic"}}, {"type": "node", "id": 3252797041, "lat": 44.3259849, "lon": 23.8092712, "tags": {"addr:city": "Craiova", "addr:housenumber": "99", "addr:street": "Bulevardul Carol I", "amenity": "clinic", "healthcare": "clinic", "name": "Centrul Medical Dr. Iano\u0219i"}}, {"type": "node", "id": 3252797056, "lat": 44.3248117, "lon": 23.8059194, "tags": {"addr:city": "Craiova", "addr:housenumber": "71", "addr:street": "Bulevardul Carol I", "amenity": "clinic", "healthcare": "clinic", "name": "Policlinica Sf\u00e2ntul Ilie"}}, {"type": "node", "id": 3252797057, "lat": 44.3231112, "lon": 23.8040071, "tags": {"addr:city": "Craiova", "addr:housenumber": "50", "addr:street": "Bulevardul Carol I", "amenity": "clinic", "healthcare": "clinic", "name": "Policlinica Tommed"}}, {"type": "node", "id": 3253648703, "lat": 44.3027497, "lon": 23.7983132, "tags": {"amenity": "clinic", "name": "Maternitate Alpha Medical"}}, {"type": "node", "id": 3253648712, "lat": 44.3060249, "lon": 23.7976378, "tags": {"addr:city": "Craiova", "addr:housenumber": "143", "addr:street": "Calea Unirii", "amenity": "clinic", "healthcare": "clinic", "name": "Renamed Dialcare"}}, {"type": "node", "id": 3323207834, "lat": 44.3180977, "lon": 23.8034179, "tags": {"amenity": "clinic", "name": "Regina Maria"}}, {"type": "node", "id": 3334259322, "lat": 44.3180633, "lon": 23.8119719, "tags": {"addr:city": "Craiova", "addr:country": "RO", "addr:housename": "Bloc A13", "addr:housenumber": "85", "addr:postcode": "200473", "addr:street": "Calea Bucure\u0219ti", "amenity": "clinic", "name": "Synlab"}}, {"type": "node", "id": 3334259404, "lat": 44.3173637, "lon": 23.8150286}, {"type": "node", "id": 3334259405, "lat": 44.317367, "lon": 23.8152163}, {"type": "node", "id": 3334259406, "lat": 44.3173738, "lon": 23.8149731}, {"type": "node", "id": 3334259407, "lat": 44.3173809, "lon": 23.8151415}, {"type": "node", "id": 3334259409, "lat": 44.3173969, "lon": 23.8151473}, {"type": "node", "id": 3334259410, "lat": 44.3174052, "lon": 23.8150631}, {"type": "node", "id": 3334259411, "lat": 44.3174086, "lon": 23.8150446}, {"type": "node", "id": 3334259413, "lat": 44.3174133, "lon": 23.815066}, {"type": "node", "id": 3334259414, "lat": 44.317419, "lon": 23.8149892}, {"type": "node", "id": 3334259416, "lat": 44.3174286, "lon": 23.8149379}, {"type": "node", "id": 3334259418, "lat": 44.3174924, "lon": 23.8152617}, {"type": "node", "id": 3334259419, "lat": 44.3175028, "lon": 23.8152055}, {"type": "node", "id": 3334259421, "lat": 44.3175588, "lon": 23.8150982}, {"type": "node", "id": 3334259425, "lat": 44.3175786, "lon": 23.8149926}, {"type": "node", "id": 3334259429, "lat": 44.3177337, "lon": 23.8152873}, {"type": "node", "id": 3334259433, "lat": 44.3177554, "lon": 23.8151678}, {"type": "node", "id": 3336744768, "lat": 44.3203274, "lon": 23.8080822, "tags": {"addr:city": "Craiova", "addr:country": "RO", "addr:housenumber": "24", "addr:postcode": "200467", "addr:street": "Strada Fra\u021bii Gole\u0219ti", "amenity": "clinic", "name": "Tiens", "website": "http://ro.tiens.com"}}, {"type": "node", "id": 3360142444, "lat": 44.3202813, "lon": 23.8217572, "tags": {"amenity": "clinic", "name": "OB-GYN"}}, {"type": "node", "id": 3387591359, "lat": 44.3236378, "lon": 23.7940368, "tags": {"amenity": "clinic", "name": "Centrul medical MaDonna Maria"}}, {"type": "node", "id": 3423250863, "lat": 44.3361739, "lon": 23.7779572, "tags": {"addr:city": "Craiova", "addr:street": "Strada George Enescu", "amenity": "clinic", "healthcare": "clinic", "name": "Medical Center"}}, {"type": "node", "id": 3446956589, "lat": 44.3254082, "lon": 23.806708, "tags": {"addr:city": "Craiova", "addr:housenumber": "111", "addr:street": "Strada \u0218tefan cel Mare", "amenity": "clinic", "healthcare": "clinic", "name": "Policlinica Sf\u00e2ntul Ilie"}}, {"type": "node", "id": 3586693970, "lat": 44.300194, "lon": 23.7971368}, {"type": "node", "id": 3586693971, "lat": 44.3000916, "lon": 23.7971411}, {"type": "node", "id": 3586693972, "lat": 44.3000935, "lon": 23.7972316}, {"type": "node", "id": 3586693973, "lat": 44.3001186, "lon": 23.7972306}, {"type": "node", "id": 3586693974, "lat": 44.3001192, "lon": 23.7972555}, {"type": "node", "id": 3586693975, "lat": 44.3001474, "lon": 23.7972543}, {"type": "node", "id": 3586693976, "lat": 44.300147, "lon": 23.7972355}, {"type": "node", "id": 3586693977, "lat": 44.3001726, "lon": 23.7972345}, {"type": "node", "id": 3586693978, "lat": 44.3001719, "lon": 23.7972025}, {"type": "node", "id": 3586693979, "lat": 44.3001953, "lon": 23.7972015}, {"type": "node", "id": 3807220142, "lat": 44.3092358, "lon": 23.8049514, "tags": {"addr:city": "Craiova", "addr:country": "RO", "addr:housenumber": "33", "addr:postcode": "200347", "addr:postcode:source": "Date de la Po\u0219ta Rom\u00e2n\u0103, publicate sub Licen\u021ba pentru Guvernare Deschis\u0103 v1.0 la http://date.gov.ro/organization/posta-romana", "addr:street": "Strada Caracal", "amenity": "clinic", "name": "Clinica Medisof"}}, {"type": "node", "id": 3822711552, "lat": 44.3153897, "lon": 23.8091356, "tags": {"addr:city": "Craiova", "addr:country": "RO", "addr:housenumber": "69", "addr:postcode": "200530", "addr:street": "Strada \u00cemp\u0103ratul Traian", "amenity": "clinic", "email": "office@sanatateacraiova.ro", "name": "Centrul Medical \"S\u0103n\u0103tatea\"", "opening_hours": "Mo-Fr 10:00-20:00", "phone": "0351458808", "website": "https://www.sanatateacraiova.ro/"}}, {"type": "node", "id": 4015377108, "lat": 44.3144882, "lon": 23.8106346, "tags": {"addr:city": "Craiova", "addr:country": "RO", "addr:housenumber": "93", "addr:postcode": "200487", "addr:street": "Strada \u00cemp\u0103ratul Traian", "amenity": "clinic", "name": "Centrul Medical \"Sf\u00e2ntul Nicolae\"", "opening_hours": "Mo-Fr 08:00-20:00", "phone": "0351401577"}}, {"type": "node", "id": 4028841526, "lat": 44.3199162, "lon": 23.807533, "tags": {"addr:city": "Craiova", "addr:country": "RO", "addr:housenumber": "9", "addr:postcode": "200467", "addr:street": "Strada Fra\u021bii Gole\u0219ti", "amenity": "clinic", "email": "centrulmedicalbataiosu@uv.ro", "name": "Centrul medical dr. B\u0103t\u0103iosu", "opening_hours": "Mo-Fr 08:00-20:00; Sa-Su off", "phone": "0251544445", "website": "http://centrulmedicalbataiosu.uv.ro"}}, {"type": "node", "id": 4067089668, "lat": 44.3155858, "lon": 23.8239672, "tags": {"addr:city": "Craiova", "addr:country": "RO", "addr:housenumber": "109", "addr:place": "Bloc R2", "addr:postcode": "200516", "addr:street": "Calea Bucure\u0219ti", "amenity": "clinic", "email": "office@phoenix-hospital.ro", "name": "Centrul Medical Phoenix", "phone": "0351466211", "website": "https://phoenix-hospital.ro/"}}, {"type": "node", "id": 4199118079, "lat": 44.3202117, "lon": 23.8008593, "tags": {"addr:city": "Craiova", "addr:country": "RO", "addr:housename": "Bloc 17A", "addr:housenumber": "25", "addr:postcode": "200678", "addr:street": "Calea Bucure\u0219ti", "amenity": "clinic", "email": "contact@medeeaclinic.ro", "name": "Medeea Clinic", "opening_hours": "Mo-Fr 13:00-19:00; Sa-Su off", "phone": "0351421843", "website": "http://www.medeeaclinic.ro"}}, {"type": "node", "id": 4270186989, "lat": 44.3272012, "lon": 23.781625, "tags": {"addr:city": "Craiova", "addr:housenumber": "104", "addr:street": "Bulevardul Nicolae Titulescu", "amenity": "clinic", "name": "Neurolife"}}, {"type": "node", "id": 4383509594, "lat": 44.3171173, "lon": 23.8187571, "tags": {"addr:housenumber": "2", "addr:street": "Strada \u0218tefan Velovan", "amenity": "clinic", "email": "edy.bondoc@yahoo.com", "healthcare": "clinic", "name": "Cabinet Psihologie Eduard Bondoc", "opening_hours": "Mo-Fr 14:00-19:00", "phone": "0723948913", "website": "https://www.psihoterapie-craiova.ro/"}}, {"type": "node", "id": 4428547790, "lat": 44.3229665, "lon": 23.7896766, "tags": {"addr:city": "Craiova", "addr:country": "RO", "addr:housenumber": "18", "addr:postcode": "200217", "addr:street": "Strada Constantin Lecca", "amenity": "clinic", "email": "office@prioritymedical.ro", "healthcare": "clinic", "healthcare:speciality": "general", "name": "Priority Medical", "opening_hours": "Mo-Fr 08:00-14:00; Sa 08:00-12:00; Su off", "phone": "0351408366", "website": "https://prioritymedical.ro/"}}, {"type": "node", "id": 4748107403, "lat": 44.326288, "lon": 23.7875653}, {"type": "node", "id": 4748107404, "lat": 44.3261556, "lon": 23.7874514}, {"type": "node", "id": 4748107407, "lat": 44.3262214, "lon": 23.7875328}, {"type": "node", "id": 4748107410, "lat": 44.3262324, "lon": 23.7874889}, {"type": "node", "id": 4748107411, "lat": 44.3263212, "lon": 23.7874322}, {"type": "node", "id": 4748107412, "lat": 44.3261779, "lon": 23.7873622}, {"type": "node", "id": 4940021027, "lat": 44.3139553, "lon": 23.8196844}, {"type": "node", "id": 4940021028, "lat": 44.3139614, "lon": 23.8199386}, {"type": "node", "id": 4940021029, "lat": 44.3138193, "lon": 23.8199453}, {"type": "node", "id": 4940021030, "lat": 44.3138131, "lon": 23.8196911}, {"type": "node", "id": 6129238212, "lat": 44.3261754, "lon": 23.7872686}, {"type": "node", "id": 6129238213, "lat": 44.3262677, "lon": 23.7873228}, {"type": "node", "id": 6129238214, "lat": 44.3261313, "lon": 23.7873252}, {"type": "node", "id": 6129238215, "lat": 44.3262685, "lon": 23.7874057}, {"type": "node", "id": 6129238216, "lat": 44.3262895, "lon": 23.7873356}, {"type": "node", "id": 6129238217, "lat": 44.3261523, "lon": 23.7872551}, {"type": "node", "id": 6129238218, "lat": 44.3261938, "lon": 23.7872082}, {"type": "node", "id": 6129238219, "lat": 44.3262859, "lon": 23.7872632}, {"type": "node", "id": 6542588627, "lat": 44.3057383, "lon": 23.8099612}, {"type": "node", "id": 6542588628, "lat": 44.3057949, "lon": 23.8104521}, {"type": "node", "id": 6542588629, "lat": 44.3061855, "lon": 23.8103581}, {"type": "node", "id": 6542588630, "lat": 44.3061221, "lon": 23.8095978}, {"type": "node", "id": 6542588631, "lat": 44.3059737, "lon": 23.8094721}, {"type": "node", "id": 6781399124, "lat": 44.3168253, "lon": 23.8113285, "tags": {"addr:city": "Craiova", "addr:street": "Strada \u00cenfr\u0103\u021birii", "amenity": "clinic", "healthcare": "clinic", "name": "MedLife Sama"}}, {"type": "node", "id": 6860077812, "lat": 44.3061657, "lon": 23.7976576}, {"type": "node", "id": 6860077813, "lat": 44.3060008, "lon": 23.7976851}, {"type": "node", "id": 6860077814, "lat": 44.3060476, "lon": 23.7981769}, {"type": "node", "id": 6860077815, "lat": 44.3060894, "lon": 23.7981666}, {"type": "node", "id": 6860077816, "lat": 44.3060919, "lon": 23.7983729}, {"type": "node", "id": 6860077817, "lat": 44.3060451, "lon": 23.7983764}, {"type": "node", "id": 6860077818, "lat": 44.3060377, "lon": 23.7985861}, {"type": "node", "id": 6860077819, "lat": 44.3061509, "lon": 23.7985827}, {"type": "node", "id": 6860077820, "lat": 44.3061559, "lon": 23.7981563}, {"type": "node", "id": 6860077821, "lat": 44.3061774, "lon": 23.7981363}, {"type": "node", "id": 8325562446, "lat": 44.3175745, "lon": 23.8144178, "tags": {"addr:city": "Craiova", "addr:country": "RO", "addr:housename": "Bloc A11", "addr:housenumber": "95", "addr:postcode": "200473", "addr:street": "Calea Bucure\u0219ti", "amenity": "clinic", "name": "Synevo"}}, {"type": "node", "id": 8440456155, "lat": 44.3291042, "lon": 23.7768119}, {"type": "node", "id": 8440456156, "lat": 44.3289823, "lon": 23.7765987}, {"type": "node", "id": 8440456157, "lat": 44.3289175, "lon": 23.7766711}, {"type": "node", "id": 8440456158, "lat": 44.3290393, "lon": 23.7768844}, {"type": "node", "id": 8889987544, "lat": 44.3062205, "lon": 23.808288}, {"type": "node", "id": 8889987545, "lat": 44.3062041, "lon": 23.8083782}, {"type": "node", "id": 8889987546, "lat": 44.3060581, "lon": 23.8083266}, {"type": "node", "id": 8889987547, "lat": 44.3060744, "lon": 23.8082364}, {"type": "node", "id": 10132658184, "lat": 44.3124538, "lon": 23.7982643, "tags": {"addr:city": "Craiova", "addr:housenumber": "7", "addr:street": "Strada Bujorului", "amenity": "clinic", "name": "Oncolab"}}, {"type": "way", "id": 255018015, "nodes": [2607710330, 2607710331, 2607709605, 2607710333, 2607710330], "tags": {"amenity": "clinic", "building": "house"}}, {"type": "way", "id": 326761079, "nodes": [3334259404, 3334259406, 3334259414, 3334259416, 3334259425, 3334259421, 3334259433, 3334259429, 3334259419, 3334259418, 3334259405, 3334259407, 3334259409, 3334259413, 3334259410, 3334259411, 3334259404], "tags": {"addr:city": "Craiova", "addr:country": "RO", "addr:housenumber": "97", "addr:postcode": "200473", "addr:street": "Calea Bucure\u0219ti", "amenity": "clinic", "building": "yes", "name": "Stomatologie"}}, {"type": "way", "id": 352882485, "nodes": [3586693970, 3586693971, 3586693972, 3586693973, 3586693974, 3586693975, 3586693976, 3586693977, 3586693978, 3586693979, 3586693970], "tags": {"addr:city": "Craiova", "addr:housenumber": "19A", "addr:street": "Strada Doctor Nicolae Ionescu-Sise\u0219ti", "amenity": "clinic", "building": "yes", "building:levels": "3", "name": "Policlinica M&M"}}, {"type": "way", "id": 481924198, "nodes": [4748107411, 4748107412, 4748107404, 4748107410, 4748107407, 4748107403, 4748107411], "tags": {"addr:city": "Craiova", "addr:housenumber": "52", "addr:street": "Bulevardul Nicolae Titulescu", "amenity": "clinic", "building": "yes", "building:levels": "2", "healthcare": "clinic", "name": "CM Camen 2"}}, {"type": "way", "id": 503719153, "nodes": [4940021027, 4940021028, 4940021029, 4940021030, 4940021027], "tags": {"addr:city": "Craiova", "addr:housenumber": "35A", "addr:postcode": "200513", "addr:street": "Strada Spania", "amenity": "clinic", "building": "yes", "name": "CardioMed", "opening_hours": "Mo-Th 07:30-20:00; Fr 07:30-17:00", "phone": "+40 351 414 733", "website": "http://www.cardiom.ro"}}, {"type": "way", "id": 654052498, "nodes": [6129238214, 6129238217, 6129238212, 6129238218, 6129238219, 6129238213, 6129238216, 6129238215, 6129238214], "tags": {"addr:city": "Craiova", "addr:housenumber": "52", "addr:street": "Bulevardul Nicolae Titulescu", "amenity": "clinic", "building": "yes", "building:levels": "2", "healthcare": "clinic", "name": "CM Camen 1"}}, {"type": "way", "id": 696688369, "nodes": [6542588627, 6542588628, 6542588629, 6542588630, 6542588631, 6542588627], "tags": {"addr:city": "Craiova", "addr:housenumber": "100", "addr:street": "Strada Anul 1848", "amenity": "clinic", "healthcare": "clinic", "name": "Vitaplus"}}, {"type": "way", "id": 732586374, "nodes": [6860077812, 6860077813, 6860077814, 6860077815, 6860077816, 6860077817, 6860077818, 6860077819, 6860077820, 6860077821, 6860077812], "tags": {"amenity": "clinic", "building": "yes", "healthcare": "clinic", "name": "Renamed"}}, {"type": "way", "id": 909026548, "nodes": [8440456158, 8440456157, 8440456156, 8440456155, 8440456158], "tags": {"addr:city": "Craiova", "addr:country": "RO", "addr:housenumber": "2G", "addr:street": "Calea Severinului", "amenity": "clinic", "building": "yes", "name": "Phoenix", "opening_hours": "Mo-Su 07:30-20:00", "operator": "Medicover", "phone": "+40351421122", "website": "https://www.medicover.ro/clinici/phoenix-severinului,63,d,178"}}, {"type": "way", "id": 961017674, "nodes": [8889987547, 8889987546, 8889987545, 8889987544, 8889987547], "tags": {"addr:city": "Craiova", "addr:housenumber": "86", "addr:street": "Strada Caracal", "amenity": "clinic", "building": "yes", "name": "Centrul Medical Irina"}}]}