{"version": 0.6, "generator": "Overpass API 0.7.62.1 084b4234", "osm3s": {"timestamp_osm_base": "2024-05-23T16:09:33Z", "copyright": "The data included in this document is from www.openstreetmap.org. The data is made available under ODbL."}, "elements": [{"type": "node", "id": 1962985119, "lat": 43.8168307, "lon": 28.5866894}, {"type": "node", "id": 1962985120, "lat": 43.8167374, "lon": 28.5866509}, {"type": "node", "id": 1962985122, "lat": 43.816775, "lon": 28.5869486}, {"type": "node", "id": 1962985123, "lat": 43.8168034, "lon": 28.5870418}, {"type": "node", "id": 1962985124, "lat": 43.8170593, "lon": 28.5873088}, {"type": "node", "id": 1962985125, "lat": 43.8170912, "lon": 28.5871606}, {"type": "node", "id": 1962985126, "lat": 43.8165771, "lon": 28.5871098}, {"type": "node", "id": 1962985127, "lat": 43.8168195, "lon": 28.5869669}, {"type": "node", "id": 1962985128, "lat": 43.8166641, "lon": 28.5869921}, {"type": "node", "id": 1962985129, "lat": 43.8166074, "lon": 28.5869687}, {"type": "node", "id": 2296781084, "lat": 43.8194668, "lon": 28.5878012}, {"type": "node", "id": 2296781089, "lat": 43.8194912, "lon": 28.5876934}, {"type": "node", "id": 2296781091, "lat": 43.8192436, "lon": 28.5879244}, {"type": "node", "id": 2296781093, "lat": 43.8199347, "lon": 28.5880518}, {"type": "node", "id": 2296781096, "lat": 43.819594, "lon": 28.5877381}, {"type": "node", "id": 2296781102, "lat": 43.8192889, "lon": 28.587724}, {"type": "node", "id": 2296781106, "lat": 43.8198991, "lon": 28.588209}, {"type": "node", "id": 2296781113, "lat": 43.8195599, "lon": 28.5878891}, {"type": "node", "id": 2978111293, "lat": 43.8194734, "lon": 28.5876346}, {"type": "node", "id": 2978111294, "lat": 43.819656, "lon": 28.5877177}, {"type": "node", "id": 2978111297, "lat": 43.8193955, "lon": 28.5875673}, {"type": "node", "id": 3629312397, "lat": 43.8093784, "lon": 28.5760476}, {"type": "node", "id": 3629312398, "lat": 43.8093387, "lon": 28.5760476}, {"type": "node", "id": 3629312399, "lat": 43.8093387, "lon": 28.576}, {"type": "node", "id": 3629312400, "lat": 43.8092952, "lon": 28.576002}, {"type": "node", "id": 3629312401, "lat": 43.8092952, "lon": 28.5759497}, {"type": "node", "id": 3629312402, "lat": 43.8092584, "lon": 28.5759511}, {"type": "node", "id": 3629312403, "lat": 43.8092603, "lon": 28.5761455}, {"type": "node", "id": 3629312404, "lat": 43.8093784, "lon": 28.5761415}, {"type": "node", "id": 5877914746, "lat": 43.8108015, "lon": 28.5820889, "tags": {"addr:city": "Mangalia", "addr:postcode": "905500", "addr:street": "Strada \u0218tefan cel Mare", "amenity": "hospital", "healthcare": "hospital", "healthcare:speciality": "ophthalmology", "name": "Optica Medical\u0103"}}, {"type": "node", "id": 5907587744, "lat": 43.8138072, "lon": 28.5761764, "tags": {"addr:city": "Mangalia", "addr:postcode": "905500", "addr:street": "Strada Mihai Viteazul", "amenity": "hospital", "healthcare": "hospital", "healthcare:speciality": "general;paediatrics;community", "name": "Dispennsarul 2"}}, {"type": "node", "id": 11254642056, "lat": 43.8174072, "lon": 28.5850739, "tags": {"amenity": "clinic", "contact:email": "mangalia@affidea.com", "contact:phone": "+40 21 9338", "contact:website": "https://affidea.ro/centre-medicale/affidea-mangalia", "name": "Affidea", "opening_hours": "Mo-Fr 08:00-16:00"}}, {"type": "way", "id": 185650303, "nodes": [1962985119, 1962985122, 1962985127, 1962985123, 1962985125, 1962985124, 1962985126, 1962985129, 1962985128, 1962985120, 1962985119], "tags": {"amenity": "hospital", "building": "yes", "emergency": "yes", "name": "Spital Mangalia"}}, {"type": "way", "id": 220568700, "nodes": [2296781093, 2296781106, 2296781091, 2296781102, 2296781084, 2296781089, 2296781096, 2296781113, 2296781093], "tags": {"addr:city": "Mangalia", "addr:housenumber": "5", "addr:postcode": "905500", "addr:postcode:source": "Date de la Po\u0219ta Rom\u00e2n\u0103, publicate sub Licen\u021ba pentru Guvernare Deschis\u0103 v1.0 la http://date.gov.ro/organization/posta-romana", "addr:street": "Strada George Emil Palade", "amenity": "hospital", "building": "yes", "emergency": "yes", "name": "Spitalul Municipal"}}, {"type": "way", "id": 294247321, "nodes": [2978111297, 2978111293, 2978111294], "tags": {"access": "no", "emergency": "yes", "highway": "residential", "maxspeed": "50", "name": "Strada George Emil Palade", "surface": "asphalt"}}, {"type": "way", "id": 357809337, "nodes": [3629312397, 3629312398, 3629312399, 3629312400, 3629312401, 3629312402, 3629312403, 3629312404, 3629312397], "tags": {"addr:city": "Mangalia", "addr:housenumber": "1", "addr:postcode": "905500", "addr:street": "Strada Theofil Sauciuc S\u0103veanu", "amenity": "clinic", "building": "yes", "name": "Gama Diamed"}}]}