{"version": 0.6, "generator": "Overpass API 0.7.62.1 084b4234", "osm3s": {"timestamp_osm_base": "2024-05-23T14:54:05Z", "copyright": "The data included in this document is from www.openstreetmap.org. The data is made available under ODbL."}, "elements": [{"type": "node", "id": 2328039369, "lat": 45.3250502, "lon": 21.8814209}, {"type": "node", "id": 2328039370, "lat": 45.3255826, "lon": 21.8810593}, {"type": "node", "id": 2328039371, "lat": 45.3252079, "lon": 21.8818907}, {"type": "node", "id": 2328039372, "lat": 45.3257403, "lon": 21.881529}, {"type": "node", "id": 5183397721, "lat": 45.2898704, "lon": 21.8838554, "tags": {"amenity": "clinic"}}, {"type": "node", "id": 10023859441, "lat": 45.286443, "lon": 21.8868673, "tags": {"addr:city": "Re\u0219i\u021ba", "addr:housenumber": "22", "addr:postcode": "320068", "addr:street": "Strada Ion Luca Caragiale", "amenity": "clinic", "healthcare": "clinic", "name": "Vestmed", "website": "https://www.vestmed.ro/"}}, {"type": "way", "id": 223966561, "nodes": [2328039370, 2328039369, 2328039371, 2328039372, 2328039370], "tags": {"amenity": "clinic", "building": "yes", "healthcare": "clinic", "name": "Policlinica"}}]}