{"version": 0.6, "generator": "Overpass API 0.7.62.1 084b4234", "osm3s": {"timestamp_osm_base": "2024-05-24T08:16:17Z", "copyright": "The data included in this document is from www.openstreetmap.org. The data is made available under ODbL."}, "elements": [{"type": "node", "id": 2054673178, "lat": 16.0251839, "lon": -16.4893295, "tags": {"addr:full": "Saint Louis", "amenity": "doctors", "beds": "3", "contact:phone": "+221775408417", "dispensing": "no", "electricity": "grid", "emergency": "no", "healthcare": "hospital", "insurance:health": "public", "name": "poste de sante de sor", "opening_hours": "24/7", "operational_status": "operational", "operator": "Minist\u00e8re de la sant\u00e9 et de l'action sociale", "operator:type": "public", "source": "#senegal #covid-19 #emergency-health-data-validation #healthsites", "staff_count:doctors": "4", "staff_count:nurses": "2", "water_source": "powered pump", "wheelchair": "no"}}, {"type": "node", "id": 2056137827, "lat": 16.0229068, "lon": -16.5040214, "tags": {"source": "Field survey"}}, {"type": "node", "id": 2056137829, "lat": 16.0229968, "lon": -16.5043572, "tags": {"source": "Field survey"}}, {"type": "node", "id": 2059677520, "lat": 16.0263986, "lon": -16.5045902, "tags": {"source": "Field survey"}}, {"type": "node", "id": 2059677521, "lat": 16.0264051, "lon": -16.5047039, "tags": {"source": "Field survey"}}, {"type": "node", "id": 2059677524, "lat": 16.0264531, "lon": -16.5045869, "tags": {"source": "Field survey"}}, {"type": "node", "id": 2059677525, "lat": 16.0264595, "lon": -16.5047006, "tags": {"source": "Field survey"}}, {"type": "node", "id": 2107212415, "lat": 16.0345997, "lon": -16.5031131, "tags": {"source": "Field survey"}}, {"type": "node", "id": 2107212417, "lat": 16.0346193, "lon": -16.5033462, "tags": {"source": "Field survey"}}, {"type": "node", "id": 2107212419, "lat": 16.0346851, "lon": -16.5031053, "tags": {"source": "Field survey"}}, {"type": "node", "id": 2107212421, "lat": 16.0347047, "lon": -16.5033384, "tags": {"source": "Field survey"}}, {"type": "node", "id": 2140303623, "lat": 16.0231386, "lon": -16.504316, "tags": {"source": "Field survey"}}, {"type": "node", "id": 2196598154, "lat": 16.037139, "lon": -16.5083839, "tags": {"source": "field survey"}}, {"type": "node", "id": 2196598156, "lat": 16.0371508, "lon": -16.5084886, "tags": {"source": "field survey"}}, {"type": "node", "id": 2196598185, "lat": 16.0373425, "lon": -16.5083592, "tags": {"source": "field survey"}}, {"type": "node", "id": 2196598187, "lat": 16.0373543, "lon": -16.5084638, "tags": {"source": "field survey"}}, {"type": "node", "id": 3744689326, "lat": 15.9975368, "lon": -16.4898731}, {"type": "node", "id": 3744727132, "lat": 15.9974887, "lon": -16.4899449}, {"type": "node", "id": 3744727526, "lat": 15.9975729, "lon": -16.4899375}, {"type": "node", "id": 3744727630, "lat": 15.9974851, "lon": -16.489897}, {"type": "node", "id": 3744727631, "lat": 15.9975855, "lon": -16.4898396}, {"type": "node", "id": 4002392713, "lat": 16.0667319, "lon": -16.4265564, "tags": {"addr:full": "Universit\u00e9 Gaston Berger de Saint Louis", "amenity": "hospital", "beds": "7", "contact:phone": "+221771691174", "dispensing": "no", "electricity": "grid", "emergency": "yes", "health_amenity:type": "laboratory;emergency_department", "healthcare": "doctor;pharmacy;hospital;dentist;laboratory;birthing_center", "insurance:health": "no", "name": "Service Medico social des Etudiants CROUS", "opening_hours": "24/7", "operational_status": "operational", "operator": "Ministere de l'enseignement sup\u00e9rieure", "operator:type": "public", "osm_id": "b7321bc3-bf62-40aa-a0b3-9e25881e2b43", "staff_count:doctors": "2", "staff_count:nurses": "6", "water_source": "powered_pump", "wheelchair": "yes"}}, {"type": "node", "id": 4585935302, "lat": 16.0493031, "lon": -16.4332574, "tags": {"addr:full": "Universit\u00e9 Gaston Berger de Saint Louis", "addr:street": "Universit\u00e9 Gaston Berger", "amenity": "doctors", "beds": "6", "contact:phone": "+221776806969", "dispensing": "no", "electricity": "grid", "emergency": "yes", "health_amenity:type": "laboratory", "healthcare": "doctor", "insurance:health": "no", "name": "CERPAD (Centre de Recherche et de Prise en charge Ambulatoire de la Dr\u00e9panocytose)", "opening_hours": "Mo-Fr 08:00-17:00; PH off", "operational_status": "operational", "operator": "Minist\u00e8re de la sant\u00e9", "operator:type": "public", "osm_id": "81c03458-f29a-4d4d-80b5-ce036692d678", "staff_count:doctors": "5", "staff_count:nurses": "7", "url": "Http://ugb.sn", "water_source": "powered_pump", "wheelchair": "yes"}}, {"type": "node", "id": 5606515732, "lat": 16.0202685, "lon": -16.4968266}, {"type": "node", "id": 5606515733, "lat": 16.0202042, "lon": -16.4966572}, {"type": "node", "id": 5606515734, "lat": 16.0200624, "lon": -16.496722}, {"type": "node", "id": 5606515735, "lat": 16.0201097, "lon": -16.4968341}, {"type": "node", "id": 5606515736, "lat": 16.0201627, "lon": -16.4968099}, {"type": "node", "id": 5606515737, "lat": 16.0201877, "lon": -16.4968693}, {"type": "node", "id": 5608226470, "lat": 16.0342955, "lon": -16.5032907, "tags": {"source": "Field survey"}}, {"type": "node", "id": 5608226471, "lat": 16.0342836, "lon": -16.5031587, "tags": {"source": "Field survey"}}, {"type": "node", "id": 5608226472, "lat": 16.0345195, "lon": -16.5030974, "tags": {"source": "Field survey"}}, {"type": "node", "id": 5608226473, "lat": 16.0345261, "lon": -16.5031592, "tags": {"source": "Field survey"}}, {"type": "node", "id": 5608226474, "lat": 16.0345825, "lon": -16.5031528, "tags": {"source": "Field survey"}}, {"type": "node", "id": 5608226475, "lat": 16.0345935, "lon": -16.5032563, "tags": {"source": "Field survey"}}, {"type": "node", "id": 5902155275, "lat": 16.0343505, "lon": -16.5033198}, {"type": "node", "id": 5902155276, "lat": 16.0343569, "lon": -16.5033802}, {"type": "node", "id": 5902155277, "lat": 16.0342779, "lon": -16.5033893}, {"type": "node", "id": 5902155278, "lat": 16.0342714, "lon": -16.503329}, {"type": "node", "id": 5914386190, "lat": 16.0343961, "lon": -16.5031116, "tags": {"source": "Field survey"}}, {"type": "node", "id": 5914386216, "lat": 16.0342605, "lon": -16.5031614, "tags": {"source": "Field survey"}}, {"type": "node", "id": 5914387046, "lat": 16.0342745, "lon": -16.5032931, "tags": {"source": "Field survey"}}, {"type": "node", "id": 5991431561, "lat": 15.9975343, "lon": -16.4898571}, {"type": "node", "id": 5991431562, "lat": 15.9975946, "lon": -16.4899559}, {"type": "node", "id": 5991431563, "lat": 15.9975742, "lon": -16.4899571}, {"type": "node", "id": 6000117523, "lat": 15.9975599, "lon": -16.4899386}, {"type": "node", "id": 6000117604, "lat": 15.9975909, "lon": -16.4899088}, {"type": "node", "id": 6038678492, "lat": 16.0046452, "lon": -16.491045}, {"type": "node", "id": 6040743325, "lat": 16.0047891, "lon": -16.4915337}, {"type": "node", "id": 6061605039, "lat": 16.0279747, "lon": -16.4584814, "tags": {"amenity": "hospital", "healthcare": "hospital"}}, {"type": "node", "id": 6281975121, "lat": 16.0164589, "lon": -16.484597}, {"type": "node", "id": 6283551180, "lat": 16.0164493, "lon": -16.4847391}, {"type": "node", "id": 6283551181, "lat": 16.0163422, "lon": -16.4845884}, {"type": "node", "id": 6283551182, "lat": 16.0163326, "lon": -16.4847305}, {"type": "node", "id": 6288514287, "lat": 16.0258996, "lon": -16.4894003, "tags": {"amenity": "clinic", "building": "hospital", "building:condition": "good", "building:levels": "1", "building:material": "brick", "fixme": "bati_existant", "healthcare": "clinic", "roof:shape": "flat", "zone": "Balacoss_014"}}, {"type": "node", "id": 6389353876, "lat": 16.0310751, "lon": -16.4915398, "tags": {"addr:full": "Saint Louis", "amenity": "clinic", "beds": "8", "contact:phone": "339618866", "electricity": "grid", "emergency": "yes", "healthcare": "Clinic, Dentist, Laboratory", "healthcare:equipment": "laboratory, imaging equipment, Intensive Care Unit", "insurance:health": "private", "name": "clinique el hadji adama wade", "opening_hours": "24/7", "operational_status": "operational", "operator": "Docteur Adama Wade", "operator:type": "private", "osm_id": "e70b6ab1-91f0-4cde-958c-bb693314d6e3", "source": "#senegal #covid-19 #emergency-health-data-validation #healthsites", "staff_count:doctors": "4", "staff_count:nurses": "3", "water_source": "powered pump", "wheelchair": "yes"}}, {"type": "node", "id": 6630801288, "lat": 16.0282465, "lon": -16.5041091, "tags": {"amenity": "clinic", "dispensing": "no", "electricity": "grid", "emergency": "no", "healthcare": "doctor;clinic", "insurance:health": "private", "name": "Clinique M\u00e9dicale Dr VENN", "opening_hours": "Mo 09:00-14:00; Tu 09:00-14:00; We 09:00-14:00; Th 09:00-14:00; Fr 09:00-14:00; Sa off; Su off; PH off", "operational_status": "operational", "operator": "Docteur Charles VENN", "operator:type": "private", "osm_id": "1e9d0ee4-0a90-4c9a-8c99-fdf5f4864a67", "staff_count:doctors": "1", "water_source": "water_works", "wheelchair": "no"}}, {"type": "node", "id": 6630801296, "lat": 16.0658824, "lon": -16.4514002, "tags": {"addr:full": "Saint-Louis", "amenity": "doctors", "beds": "14", "dispensing": "no", "electricity": "grid", "emergency": "yes", "health_amenity:type": "ultrasound;emergency_department", "healthcare": "pharmacy, doctor, birthing center", "insurance:health": "public", "name": "poste de sante de bango", "opening_hours": "24/7", "operational_status": "operational", "operator": "Minist\u00e8re de la sant\u00e9 et de l'action sociale", "operator:type": "public", "osm_id": "2bf81272-e8cf-4b08-9907-76e7b491356e", "source": "#senegal #covid-19 #emergency-health-data-validation #healthsites", "staff_count:nurses": "2", "water_source": "well", "wheelchair": "yes"}}, {"type": "node", "id": 6630801589, "lat": 16.0230487, "lon": -16.5039802}, {"type": "node", "id": 6630801689, "lat": 16.0286051, "lon": -16.5082069, "tags": {"addr:full": "Saint-Louis", "amenity": "doctors", "beds": "9", "contact:phone": "+221775158164", "dispensing": "no", "electricity": "grid", "emergency": "yes", "healthcare": "doctor;pharmacy;birthing_centre", "insurance:health": "public", "name": "poste de sante de ndar toute", "opening_hours": "24/7", "operational_status": "operational", "operator": "Minist\u00e8re de la sant\u00e9 et de l'action sociale", "operator:type": "public", "osm_id": "efddefbf-bd01-46bb-b302-3d616b3836f8", "source": "#senegal #covid-19 #emergency-health-data-validation #healthsites", "staff_count:nurses": "5", "water_source": "well", "wheelchair": "yes"}}, {"type": "node", "id": 6630803889, "lat": 16.0343996, "lon": -16.5031466}, {"type": "node", "id": 6630804885, "lat": 15.9989193, "lon": -16.4954058, "tags": {"amenity": "doctors", "beds": "10", "contact:phone": "+221774252374", "dispensing": "no", "electricity": "grid", "emergency": "yes", "health_amenity:type": "emergency_department", "healthcare": "birthing_centre;pharmacy", "insurance:health": "no", "name": "Poste de sant\u00e9 pikine sor", "opening_hours": "24/7", "operational_status": "operational", "operator": "Minist\u00e8re de la sant\u00e9", "operator:type": "public", "osm_id": "dd794e33-bbc6-4a1b-9cb1-575b5dbd0800", "staff_count:doctors": "1", "staff_count:nurses": "1", "water_source": "water_works", "wheelchair": "yes"}}, {"type": "node", "id": 6630804887, "lat": 16.0271943, "lon": -16.5050338, "tags": {"amenity": "dentist", "beds": "1", "dispensing": "no", "electricity": "grid", "emergency": "yes", "health_amenity:type": "laboratory", "healthcare": "dentist", "insurance:health": "private", "name": "Cabinet Dentaire Horizon 2050", "opening_hours": "Mo 08:30-13:00,15:00-18:00; Tu 08:30-13:00,15:00-18:00; We 08:30-13:00,15:00-18:00; Th 08:30-13:00,15:00-18:00; Fr 08:30-13:00,15:00-18:00; Sa 08:30-13:00,15:00-18:00; Su off; PH off", "operational_status": "operational", "operator": "Docteur Abdoulaye NDOYE", "operator:type": "private", "osm_id": "eafec67e-6e1a-460e-989a-62f9221eba7c", "staff_count:doctors": "3", "water_source": "water_works", "wheelchair": "yes"}}, {"type": "node", "id": 6630804985, "lat": 15.997523, "lon": -16.4896543, "tags": {"addr:full": "Saint louis", "amenity": "clinic", "beds": "7", "contact:phone": "775585402", "dispensing": "no", "electricity": "grid", "emergency": "yes", "healthcare": "birthing_centre;pharmacy", "healthcare:equipment": "imaging equipment", "insurance:health": "public", "name": "post\u00e9 de sante de sor daga", "opening_hours": "24/7", "operational_status": "operational", "operator": "Minist\u00e8re de la sant\u00e9 et de l'action sociale", "operator:type": "public", "staff_count:nurses": "2", "water_source": "water_works", "wheelchair": "limited"}}, {"type": "node", "id": 6630804988, "lat": 16.0230201, "lon": -16.5060742}, {"type": "node", "id": 6630806785, "lat": 16.0111015, "lon": -16.4933452, "tags": {"amenity": "doctors", "beds": "25", "contact:phone": "+221339613229", "dispensing": "no", "electricity": "grid", "emergency": "yes", "health_amenity:type": "emergency_department;laboratory", "healthcare": "birthing_centre;pharmacy;dentist;laboratory;optometrist", "insurance:health": "private;public", "name": "Centre de sant\u00e9 de Saint Louis", "opening_hours": "24/7", "operational_status": "operational", "operator": "Minist\u00e8re de la sant\u00e9", "operator:type": "public", "osm_id": "719e5b7b-227a-4679-a711-21b87057823e", "staff_count:doctors": "3", "staff_count:nurses": "10", "water_source": "water_works", "wheelchair": "yes"}}, {"type": "node", "id": 6630806985, "lat": 16.0436475, "lon": -16.5068287, "tags": {"addr:full": "Saint-Louis", "amenity": "doctors", "beds": "5", "contact:phone": "+221776507039", "dispensing": "no", "electricity": "grid", "emergency": "yes", "health_amenity:type": "ultrasound;emergency_department", "healthcare": "doctor;pharmacy;hospital;birthing_center", "insurance:health": "public", "name": "Poste de Goxu-mbacc", "opening_hours": "24/7", "operational_status": "operational", "operator": "Minist\u00e8re de la sant\u00e9 et de l'action sociale", "operator:type": "public", "osm_id": "378f2923-6592-42c0-b622-2f54686e331d", "source": "#senegal #covid-19 #emergency-health-data-validation #healthsites", "staff_count:nurses": "4", "water_source": "water_works", "wheelchair": "no"}}, {"type": "node", "id": 6630813387, "lat": 16.0645827, "lon": -16.4501609, "tags": {"amenity": "doctors", "beds": "1", "contact:phone": "+221339614802", "dispensing": "no", "electricity": "grid", "emergency": "yes", "health_amenity:type": "emergency_department", "healthcare": "clinic;doctor", "insurance:health": "no", "name": "Infirmerie priv\u00e9e Yaye Bineta", "opening_hours": "Mo 09:00-13:00; Tu 09:00-13:00; We 09:00-13:00; Th 09:00-13:00; Fr off; Sa 09:00-13:00; Su off; PH off", "operational_status": "operational", "operator": "Elhadj Seck", "operator:type": "private", "osm_id": "1e5afd28-9aa0-4261-bca4-8b364b550e27", "staff_count:doctors": "1", "staff_count:nurses": "1", "water_source": "powered_pump", "wheelchair": "yes"}}, {"type": "node", "id": 6630818985, "lat": 16.0397456, "lon": -16.4470002, "tags": {"addr:full": "Saint-Louis", "amenity": "doctors", "contact:phone": "339641179", "electricity": "grid", "emergency": "yes", "healthcare": "doctor, hospital", "healthcare:equipment": "Emergency Department", "insurance:health": "private", "name": "Samu", "opening_hours": "24/7", "operational_status": "operational", "operator": "Dr BA", "operator:type": "private", "osm_id": "18f1fb2b-10d0-4e58-8e37-7b7c4720a5e2", "source": "#senegal #covid-19 #emergency-health-data-validation #healthsites", "staff_count:doctors": "4", "staff_count:nurses": "4", "water_source": "water works", "wheelchair": "yes"}}, {"type": "node", "id": 6630819185, "lat": 16.0834542, "lon": -16.3634997, "tags": {"addr:full": "Saint louis", "amenity": "doctors", "beds": "12", "dispensing": "no", "electricity": "grid", "emergency": "yes", "healthcare": "doctor;pharmacy;birthing_centre", "insurance:health": "public", "name": "poste de sante de mbarigo", "opening_hours": "24/7", "operational_status": "operational", "operator": "Minist\u00e8re de la sant\u00e9 et de l'action sociale", "operator:type": "public", "osm_id": "fc3dd815-4d48-40aa-820a-89c4529a65ef", "source": "#senegal #covid-19 #emergency-health-data-validation #healthsites", "staff_count:nurses": "3", "water_source": "water works", "wheelchair": "yes"}}, {"type": "node", "id": 7386018373, "lat": 16.0227223, "lon": -16.50614}, {"type": "node", "id": 7386018374, "lat": 16.022663, "lon": -16.505869}, {"type": "node", "id": 7386018375, "lat": 16.0229595, "lon": -16.505802}, {"type": "node", "id": 9513198031, "lat": 16.0048654, "lon": -16.4912149}, {"type": "node", "id": 9513198032, "lat": 16.0049001, "lon": -16.4911469}, {"type": "node", "id": 9513198033, "lat": 16.00457, "lon": -16.4913941}, {"type": "node", "id": 9656268974, "lat": 16.0203637, "lon": -16.3590891, "tags": {"addr:full": "Mbengu\u00e9ne", "amenity": "clinic", "beds": "4", "electricity": "grid", "emergency": "yes", "healthcare": "pharmacy, hospital", "insurance:health": "Unknown", "name": "case de sante migu\u00e9ne boye", "operational_status": "non_operational", "operator": "Minist\u00e8re de la sant\u00e9 et de l'action sociale", "operator:type": "public", "osm_id": "6192986c-f6fb-4789-a1f8-45dcb7e95465", "source": "#senegal #covid-19 #emergency-health-data-validation #healthsites", "staff_count:doctors": "0", "staff_count:nurses": "1", "water_source": "water works"}}, {"type": "node", "id": 9656268987, "lat": 16.2107709, "lon": -16.3894517, "tags": {"addr:full": "Saint Louis", "amenity": "clinic", "beds": "2", "contact:phone": "772721473", "electricity": "grid", "emergency": "no", "healthcare": "doctor", "insurance:health": "private", "name": "infirmerie cadre omvs", "opening_hours": "24/7", "operational_status": "operational", "operator": "Infirmerie cit\u00e9 omvs", "operator:type": "private", "osm_id": "6f11750b-8ed5-4d5d-a08a-96445cf74418", "source": "#senegal #covid-19 #emergency-health-data-validation #healthsites", "staff_count:doctors": "1", "staff_count:nurses": "0", "water_source": "well", "wheelchair": "yes"}}, {"type": "node", "id": 9656268992, "lat": 16.0256068, "lon": -16.4979662, "tags": {"addr:full": "Saint Louis", "amenity": "hospital", "beds": "5", "electricity": "grid", "emergency": "no", "healthcare": "hospital", "healthcare:equipment": "imaging equipment", "insurance:health": "public", "name": "poste de sante pmi de sor", "opening_hours": "24/7", "operational_status": "operational", "operator": "Minist\u00e8re de la sant\u00e9 et de l'action sociale", "operator:type": "public", "source": "#senegal #covid-19 #emergency-health-data-validation #healthsites", "staff_count:nurses": "1", "water_source": "powered pump", "wheelchair": "limited"}}, {"type": "node", "id": 9656268994, "lat": 16.025771, "lon": -16.489276, "tags": {"addr:full": "Saint Louis", "amenity": "clinic", "beds": "8", "contact:phone": "336796543", "electricity": "grid", "emergency": "no", "healthcare": "clinic", "insurance:health": "private", "name": "clinique m\u00e9dicale la corniche", "opening_hours": "unknown", "operational_status": "operational", "operator": "clinique m\u00e9dicale la corniche", "operator:type": "private", "staff_count:doctors": "3", "staff_count:nurses": "2", "water_source": "powered pump", "wheelchair": "yes"}}, {"type": "node", "id": 9656492945, "lat": 16.0490025, "lon": -16.4334724, "tags": {"addr:full": "Saint-Louis", "amenity": "clinic", "healthcare": "laboratory", "insurance:health": "private", "name": "Laboratoire cerpad", "opening_hours": "Mo-Sa 8:00-18:00; PH off", "operational_status": "operational", "operator": "Rectorat UGB", "operator:type": "public", "osm_id": "2eafb9df-c33a-4570-bc05-ac1eef7ec83a", "source": "#senegal #covid-19 #emergency-health-data-validation #healthsites"}}, {"type": "node", "id": 9657218649, "lat": 16.0785781, "lon": -16.3594288, "tags": {"addr:full": "Saint louis", "amenity": "doctors", "beds": "12", "electricity": "grid", "emergency": "yes", "healthcare": "doctor", "insurance:health": "public", "name": "poste de sante de mbarigo", "opening_hours": "24/7", "operational_status": "operational", "operator": "Minist\u00e8re de la sant\u00e9 et de l'action sociale", "operator:type": "public", "source": "#senegal #covid-19 #emergency-health-data-validation #healthsites", "staff_count:nurses": "1", "water_source": "water works", "wheelchair": "limited"}}, {"type": "node", "id": 9658850216, "lat": 16.0188696, "lon": -16.4993682, "tags": {"addr:full": "Saint Louis", "amenity": "clinic", "beds": "4", "contact:phone": "339610204", "electricity": "grid", "emergency": "yes", "healthcare": "Clinic, Doctor", "insurance:health": "private", "name": "suma urgences", "opening_hours": "24/7", "operational_status": "operational", "operator": "Clinique suma urgences", "operator:type": "private", "osm_id": "bb352126-917f-4a93-a586-2755ae63a291", "source": "#senegal #covid-19 #emergency-health-data-validation #healthsites", "staff_count:doctors": "1", "staff_count:nurses": "1", "water_source": "water works", "wheelchair": "limited"}}, {"type": "node", "id": 9989552368, "lat": 16.0906487, "lon": -16.3687478, "tags": {"addr:full": "Mbakhana, Saint-Louis", "amenity": "doctors", "electricity": "solar", "healthcare": "hospital", "insurance:health": "None", "name": "case de sante de mbakhana", "opening_hours": "unknown", "operational_status": "non_operational", "operator": "Minist\u00e8re de la sant\u00e9 et de l'action sociale", "operator:type": "public", "osm_id": "0f4c5b93-1a62-4b9f-9c61-4b6f36299020", "source": "#senegal #covid-19 #emergency-health-data-validation #healthsites", "water_source": "water works", "wheelchair": "limited"}}, {"type": "way", "id": 195133669, "nodes": [2056137829, 2056137827, 6630801589, 2140303623, 2056137829], "tags": {"addr:full": "Saint-Louis", "amenity": "clinic", "beds": "12", "building": "yes", "building:condition": "good", "building:levels": "2", "building:material": "brick", "contact:phone": "+221339613400", "dispensing": "no", "electricity": "Other Power", "emergency": "yes", "health_amenity:type": "ultrasound;operating_theater;laboratory;imaging_equipment;emergency_department;intensive_care_unit", "healthcare": "doctor;optometrist;birthing_center;laboratory;clinic;dentist;rehabilitation", "healthcare:equipment": "laboratory", "insurance:health": "private", "name": "clinique ndiaye", "opening_hours": "24/7", "operational_status": "operational", "operator": "Private", "operator:type": "private", "roof:shape": "flat", "staff_count:doctors": "3", "staff_count:nurses": "3", "water_source": "well", "wheelchair": "yes"}}, {"type": "way", "id": 195543006, "nodes": [2059677525, 2059677524, 2059677520, 2059677521, 2059677525], "tags": {"amenity": "hospital", "building": "yes", "building:condition": "good", "building:levels": "1", "building:material": "brick", "healthcare": "hospital", "name": "CCBM electonique", "roof:shape": "flat", "source": "Field survey"}}, {"type": "way", "id": 200758626, "nodes": [2107212421, 2107212419, 2107212415, 2107212417, 2107212421], "tags": {"amenity": "hospital", "building": "yes", "building:condition": "good", "building:levels": "0", "building:material": "brick", "healthcare": "hospital", "name": "Centre m\u00e9dical de Garnison Nord", "roof:shape": "flat", "source": "Field survey"}}, {"type": "way", "id": 209441983, "nodes": [2196598156, 2196598187, 2196598185, 2196598154, 2196598156], "tags": {"building": "public", "building:condition": "average", "building:levels": "1", "building:material": "brick", "emergency": "yes", "healthcare": "centre", "name": "Centre de premier accueil de Saint-Louis", "roof:shape": "hipped", "source": "field survey"}}, {"type": "way", "id": 370786911, "nodes": [3744727526, 6000117523, 3744727132, 3744727630, 3744689326, 5991431561, 3744727631, 6000117604, 5991431562, 5991431563, 3744727526], "tags": {"amenity": "clinic", "building": "yes", "healthcare": "clinic", "name": "Espace Causerie et Sensibilisation du Poste de Sant\u00e9 de Sor Daga", "source": "bing"}}, {"type": "way", "id": 586833323, "nodes": [5606515732, 5606515733, 5606515734, 5606515735, 5606515736, 5606515737, 5606515732], "tags": {"addr:city": "Saint-Louis", "addr:street": "Rue El Hadji Rawane Ngom", "amenity": "clinic", "building": "yes", "healthcare": "clinic", "healthcare:speciality": "general", "name": "Centre de sant\u00e9 Diamagueune", "operator": "Commune de Saint-Louis"}}, {"type": "way", "id": 587057039, "nodes": [5608226475, 5608226474, 5608226473, 5608226472, 5914386190, 6630803889, 5608226471, 5914386216, 5914387046, 5608226470, 5608226475], "tags": {"addr:full": "Nord, Saint-Louis, S\u00e9n\u00e9gal", "amenity": "hospital", "beds": "16", "building:condition": "good", "building:levels": "0", "building:material": "brick", "dispensing": "no", "electricity": "Power grid", "emergency": "yes", "healthcare": "MRI,Laboratory,Imaging Equipment,Emergency Department", "insurance:health": "private;public", "name": "Centre m\u00e9dical Garnison Saint-Louis", "operational_status": "Operational", "operator": "Zone militaire n\u00b02 Garnison", "operator:type": "Government", "osm_id": "e476f2f5-20d5-4d4a-aefa-d0c09c5ac100", "roof:shape": "gabled", "source": "#senegal #covid-19 #emergency-health-data #healthsites", "water_source": "water works", "wheelchair": "yes"}}, {"type": "way", "id": 625101013, "nodes": [5902155278, 5902155277, 5902155276, 5902155275, 5902155278], "tags": {"amenity": "hospital", "building": "hospital", "building:condition": "good", "building:levels": "0", "building:material": "brick", "healthcare": "hospital", "name": "Centre m\u00e9dical Garnison Saint-Louis", "roof:shape": "flat", "source": "field survey"}}, {"type": "way", "id": 670992941, "nodes": [6283551182, 6283551180, 6281975121, 6283551181, 6283551182], "tags": {"amenity": "clinic", "building": "yes", "building:condition": "good", "building:levels": "1", "building:material": "brick", "fixme": "bati_a_numeriser", "healthcare": "clinic", "roof:shape": "flat", "zone": "Ndiolof\u00e8ne Sud_049"}}, {"type": "way", "id": 789993765, "nodes": [6630804988, 7386018373, 7386018374, 7386018375, 6630804988], "tags": {"alt_name": "Centre Hospitalier R\u00e9gional de Saint-Louis", "amenity": "hospital", "beds": "223", "building": "hospital", "contact:phone": "+221775220240", "dispensing": "no", "electricity": "grid", "emergency": "yes", "health_amenity:type": "x_ray;ultrasound;operating_theater;dialysis;laboratory;imaging_equipment;intensive_care_unit;emergency_department", "insurance:health": "public;private", "name": "H\u00f4pital r\u00e9gional de Saint-Louis", "opening_hours": "24/7", "operational_status": "operational", "operator": "Minist\u00e8re de la sant\u00e8 et de l'action sociale", "operator:type": "public", "osm_id": "a775556d-e3fb-44d4-9ed9-e2024e4bae3f", "source": "bing,survey", "staff_count:doctors": "47", "staff_count:nurses": "254", "water_source": "water_works", "wheelchair": "no"}}, {"type": "way", "id": 1032495939, "nodes": [9513198031, 6040743325, 9513198033, 6038678492, 9513198032, 9513198031], "tags": {"amenity": "hospital", "healthcare": "hospital", "name": "TERRAIN DE JEU"}}]}