{"version": 0.6, "generator": "Overpass API 0.7.62.1 084b4234", "osm3s": {"timestamp_osm_base": "2024-05-23T15:36:09Z", "copyright": "The data included in this document is from www.openstreetmap.org. The data is made available under ODbL."}, "elements": [{"type": "node", "id": 3476054308, "lat": 45.0930809, "lon": 24.371131}, {"type": "node", "id": 3476054324, "lat": 45.0932968, "lon": 24.3707965}, {"type": "node", "id": 3476054329, "lat": 45.0931896, "lon": 24.3707371}, {"type": "node", "id": 3476054383, "lat": 45.0931882, "lon": 24.3711903}, {"type": "node", "id": 4063043490, "lat": 45.1137262, "lon": 24.3626173}, {"type": "node", "id": 4063043491, "lat": 45.1135208, "lon": 24.3626022}, {"type": "node", "id": 4063043532, "lat": 45.1135163, "lon": 24.3627243}, {"type": "node", "id": 4063043544, "lat": 45.1137217, "lon": 24.3627394}, {"type": "node", "id": 4121624201, "lat": 45.1194735, "lon": 24.3632908, "tags": {"addr:city": "R\u00e2mnicu V\u00e2lcea", "addr:housenumber": "205", "addr:street": "Calea lui Traian", "amenity": "clinic", "contact:email": "imagistica.valcea@affidea.com", "contact:phone": "+40 21 9338", "contact:website": "https://affidea.ro/centre-medicale/imagistica-sanmed-ramnicu-valcea", "healthcare": "clinic", "name": "Affidea", "opening_hours": "Mo-Fr 08:00-20:00; Sa 09:00-14:00"}}, {"type": "node", "id": 6159675930, "lat": 45.1077073, "lon": 24.3675472, "tags": {"amenity": "clinic", "healthcare": "clinic", "name": "Centrul de Stransfuzie Sanguin\u0103"}}, {"type": "node", "id": 8807073532, "lat": 45.1168446, "lon": 24.3637161, "tags": {"addr:city": "R\u00e2mnicu V\u00e2lcea", "addr:street": "Calea lui Traian", "amenity": "clinic", "healthcare": "clinic", "name": "Clinica Rapitest"}}, {"type": "node", "id": 8808212772, "lat": 45.0997307, "lon": 24.3621347, "tags": {"addr:city": "R\u00e2mnicu V\u00e2lcea", "addr:street": "Calea lui Traian", "amenity": "clinic", "healthcare": "clinic", "name": "Medvil"}}, {"type": "node", "id": 11254642062, "lat": 45.1143879, "lon": 24.3646556, "tags": {"amenity": "clinic", "contact:email": "clinica.valcea@affidea.com", "contact:phone": "+40 21 9338", "contact:website": "https://affidea.ro/centre-medicale/centrul-medical-sanmed-ramnicu-valcea", "name": "Affidea", "opening_hours": "Mo-Fr 07:30-20:00; Sa 08:00-14:00"}}, {"type": "way", "id": 340383699, "nodes": [3476054329, 3476054308, 3476054383, 3476054324, 3476054329], "tags": {"addr:city": "R\u00e2mnicu V\u00e2lcea", "amenity": "clinic", "building": "apartments", "name": "Clinica Ostroveni"}}, {"type": "way", "id": 404024671, "nodes": [4063043490, 4063043491, 4063043532, 4063043544, 4063043490], "tags": {"amenity": "clinic", "building": "yes", "name": "Analize Medical"}}]}