{"version": 0.6, "generator": "Overpass API 0.7.62.1 084b4234", "osm3s": {"timestamp_osm_base": "2024-05-23T16:08:34Z", "copyright": "The data included in this document is from www.openstreetmap.org. The data is made available under ODbL."}, "elements": [{"type": "node", "id": 3053355835, "lat": 47.1922185, "lon": 23.0503074}, {"type": "node", "id": 3053355836, "lat": 47.1922415, "lon": 23.0503512}, {"type": "node", "id": 3053355837, "lat": 47.1923646, "lon": 23.0514934}, {"type": "node", "id": 3053355838, "lat": 47.1923835, "lon": 23.0505939}, {"type": "node", "id": 3053355839, "lat": 47.1925593, "lon": 23.0502795}, {"type": "node", "id": 3053355840, "lat": 47.1926594, "lon": 23.0496567}, {"type": "node", "id": 3053355841, "lat": 47.1927337, "lon": 23.050584}, {"type": "node", "id": 3053355842, "lat": 47.1928189, "lon": 23.0499253}, {"type": "node", "id": 3053355843, "lat": 47.1929082, "lon": 23.0503571}, {"type": "node", "id": 3053355844, "lat": 47.1929717, "lon": 23.052546}, {"type": "node", "id": 3053355845, "lat": 47.1933679, "lon": 23.0510974}, {"type": "node", "id": 3053355846, "lat": 47.1934666, "lon": 23.0519053}, {"type": "node", "id": 9881575002, "lat": 47.1863299, "lon": 23.0530599, "tags": {"addr:city": "Zal\u0103u", "addr:housenumber": "48", "addr:postcode": "450053", "addr:street": "Strada Clo\u0219ca", "amenity": "clinic", "healthcare": "clinic", "name": "Clinica O.R.L. dr. Matioc", "name:ro": "Clinica O.R.L. dr. Matioc", "phone": "0741194243", "website": "https://clinicaorldrmatioc.business.site/?utm_source=gmb&utm_medium=referral"}}, {"type": "way", "id": 301243123, "nodes": [3053355843, 3053355845, 3053355846, 3053355844, 3053355837, 3053355838, 3053355836, 3053355835, 3053355840, 3053355842, 3053355839, 3053355841, 3053355843], "tags": {"addr:city": "Zal\u0103u", "amenity": "hospital", "healthcare": "hospital", "name": "Spitalul Jude\u021bean S\u0103laj", "name:hu": "Nagy K\u00f3rh\u00e1z", "name:ro": "Spitalul Jude\u021bean S\u0103laj"}}]}