{"version": 0.6, "generator": "Overpass API 0.7.62.1 084b4234", "osm3s": {"timestamp_osm_base": "2024-05-23T15:37:10Z", "copyright": "The data included in this document is from www.openstreetmap.org. The data is made available under ODbL."}, "elements": [{"type": "node", "id": 4161703090, "lat": 44.929838, "lon": 25.453265, "tags": {"amenity": "clinic", "name": "Clinica Odontologic\u0103 T\u00e2rgovi\u0219te"}}, {"type": "node", "id": 4816632839, "lat": 44.9312584, "lon": 25.4502875, "tags": {"amenity": "clinic", "name": "Controlmed"}}, {"type": "node", "id": 4871360927, "lat": 44.9340039, "lon": 25.4542734, "tags": {"amenity": "clinic", "name": "Centrul medical Eurotop"}}, {"type": "node", "id": 5183210738, "lat": 44.927485, "lon": 25.4659919, "tags": {"addr:city": "T\u00e2rgovi\u0219te", "amenity": "clinic", "name": "Clinica Valeriana"}}, {"type": "node", "id": 5183210797, "lat": 44.9272951, "lon": 25.4663698, "tags": {"addr:city": "T\u00e2rgovi\u0219te", "amenity": "clinic", "name": "Centrul Medical Carol Davila"}}, {"type": "node", "id": 5184325348, "lat": 44.9259598, "lon": 25.4476011, "tags": {"addr:city": "T\u00e2rgovi\u0219te", "addr:housenumber": "30", "addr:postcode": "307008", "addr:postcode:source": "Date de la Po\u0219ta Rom\u00e2n\u0103, publicate sub Licen\u021ba pentru Guvernare Deschis\u0103 v1.0 la http://date.gov.ro/organization/posta-romana", "addr:street": "Bulevardul Tudor Vladimirescu", "amenity": "clinic", "healthcare": "clinic", "healthcare:speciality": "abortion", "name": "Bio Clinica"}}, {"type": "node", "id": 8806123806, "lat": 44.9209193, "lon": 25.4526615}, {"type": "node", "id": 8806123807, "lat": 44.9207777, "lon": 25.4528604}, {"type": "node", "id": 8806123808, "lat": 44.9208158, "lon": 25.4529145}, {"type": "node", "id": 8806123809, "lat": 44.920838, "lon": 25.4528832}, {"type": "node", "id": 8806123810, "lat": 44.9208839, "lon": 25.4529485}, {"type": "node", "id": 8806123811, "lat": 44.9210442, "lon": 25.4527235}, {"type": "node", "id": 8806123812, "lat": 44.9210123, "lon": 25.4526783}, {"type": "node", "id": 8806123813, "lat": 44.9209715, "lon": 25.4527356}, {"type": "way", "id": 951360418, "nodes": [8806123806, 8806123807, 8806123808, 8806123809, 8806123810, 8806123811, 8806123812, 8806123813, 8806123806], "tags": {"addr:city": "T\u00e2rgovi\u0219te", "addr:housenumber": "12", "addr:street": "Strada Doctor Benone Georgescu", "amenity": "clinic", "building": "yes", "healthcare": "clinic", "healthcare:speciality": "abortion", "name": "PROMED"}}]}