{"version": 0.6, "generator": "Overpass API 0.7.62.1 084b4234", "osm3s": {"timestamp_osm_base": "2024-05-24T08:19:24Z", "copyright": "The data included in this document is from www.openstreetmap.org. The data is made available under ODbL."}, "elements": [{"type": "node", "id": 3649239758, "lat": 16.5103367, "lon": -14.6522529}, {"type": "node", "id": 3649239759, "lat": 16.5101001, "lon": -14.654066}, {"type": "node", "id": 3649239760, "lat": 16.5092977, "lon": -14.6556325}, {"type": "node", "id": 3649239761, "lat": 16.5084131, "lon": -14.6524674}, {"type": "node", "id": 3649239762, "lat": 16.5097709, "lon": -14.6540875}, {"type": "node", "id": 3649239763, "lat": 16.507909, "lon": -14.6551711}, {"type": "node", "id": 3649239764, "lat": 16.5083925, "lon": -14.653594}, {"type": "node", "id": 3649239765, "lat": 16.5103737, "lon": -14.652873}, {"type": "node", "id": 4932607488, "lat": 16.5278861, "lon": -14.8038303}, {"type": "node", "id": 4932607489, "lat": 16.5278915, "lon": -14.8037234}, {"type": "node", "id": 4932607490, "lat": 16.5277809, "lon": -14.8037009}, {"type": "node", "id": 4932607491, "lat": 16.5277729, "lon": -14.8038106}, {"type": "node", "id": 9989552388, "lat": 16.2326248, "lon": -14.5927687, "tags": {"addr:full": "Athie baly/Dodel", "amenity": "doctors", "beds": "4", "contact:phone": "774589292", "electricity": "solar", "emergency": "yes", "healthcare": "doctor, pharmacy, birthing center", "healthcare:equipment": "Emergency Department", "insurance:health": "None", "name": "case de sante athie baly", "opening_hours": "24/7", "operational_status": "operational", "operator": "Minist\u00e8re de la sant\u00e9 et de l'action sociale", "operator:type": "public", "osm_id": "5c301d97-c49a-4ce0-9dd4-0277f61d3c8b", "source": "#senegal #covid-19 #emergency-health-data-validation #healthsites", "staff_count:nurses": "1", "water_source": "water works", "wheelchair": "no"}}, {"type": "node", "id": 9989554725, "lat": 16.5133505, "lon": -14.6363415, "tags": {"addr:full": "Ndioum/Saint-Louis", "amenity": "clinic", "beds": "30", "contact:phone": "775583542", "electricity": "grid", "emergency": "no", "healthcare": "doctor, pharmacy, clinic", "insurance:health": "public private", "name": "boubba g\u00e9riatrie de ndioum", "opening_hours": "24/7", "operational_status": "operational", "operator": "Dr Seydou Sall", "operator:type": "private", "osm_id": "49a3b99e-2b6a-413f-bb48-f2aa8c02b958", "source": "#senegal #covid-19 #emergency-health-data-validation #healthsites", "staff_count:doctors": "1", "staff_count:nurses": "2", "water_source": "water works", "wheelchair": "yes"}}, {"type": "node", "id": 9989554747, "lat": 16.4140492, "lon": -14.6398717, "tags": {"addr:full": "ABA/Podor", "amenity": "doctors", "beds": "1", "electricity": "no", "emergency": "yes", "healthcare": "doctor", "insurance:health": "Unknown", "name": "case de sante de aba", "opening_hours": "24/7", "operational_status": "operational", "operator": "Minist\u00e8re de la sant\u00e9 et de l'action sociale", "operator:type": "public", "osm_id": "999047be-17f4-4c0b-9254-b377fb6d6ec4", "source": "#senegal #covid-19 #emergency-health-data-validation #healthsites", "staff_count:nurses": "1", "water_source": "water works", "wheelchair": "no"}}, {"type": "node", "id": 9989554755, "lat": 16.3869178, "lon": -14.5813735, "tags": {"amenity": "doctors", "beds": "2", "contact:phone": "779878303", "electricity": "no", "emergency": "yes", "healthcare": "doctor, pharmacy, birthing center", "insurance:health": "Unknown", "name": "case mboubi ndiyam", "opening_hours": "24/7", "operational_status": "operational", "operator": "Minist\u00e8re de la sant\u00e9 et de l'action sociale", "operator:type": "public", "osm_id": "74d64106-01bc-4830-a323-f991fa61a6f1", "source": "#senegal #covid-19 #emergency-health-data-validation #healthsites", "staff_count:nurses": "2", "water_source": "manual pump", "wheelchair": "no"}}, {"type": "node", "id": 9989554765, "lat": 16.5139331, "lon": -14.6440086, "tags": {"addr:full": "Ndioum", "amenity": "doctors", "beds": "24", "electricity": "grid", "emergency": "yes", "healthcare": "doctor, pharmacy, birthing center", "insurance:health": "public", "name": "post\u00e9 de sante de ndioum", "opening_hours": "24/7", "operational_status": "operational", "operator": "Minist\u00e8re de la sant\u00e9 et de l'action sociale", "operator:type": "public", "osm_id": "c59fc171-189f-4f1c-9578-c579696b8c4a", "source": "#senegal #covid-19 #emergency-health-data-validation #healthsites", "staff_count:doctors": "0", "staff_count:nurses": "3", "water_source": "water works", "wheelchair": "yes"}}, {"type": "node", "id": 9989554766, "lat": 16.5196137, "lon": -14.6966081, "tags": {"addr:full": "Gamadji Sar\u00e9/Podor", "amenity": "doctors", "beds": "13", "contact:phone": "775088112", "electricity": "grid", "emergency": "yes", "healthcare": "doctor, pharmacy, birthing center", "healthcare:equipment": "Emergency Department", "insurance:health": "None", "name": "poste de sante de gamadji sar\u00e9", "opening_hours": "24/7", "operational_status": "operational", "operator": "Minist\u00e8re de la sant\u00e9 et de l'action sociale", "operator:type": "public", "osm_id": "0fe44886-714c-49ff-ab95-1c255b4fcb48", "source": "#senegal #covid-19 #emergency-health-data-validation #healthsites", "staff_count:doctors": "0", "staff_count:nurses": "1", "water_source": "water works", "wheelchair": "limited"}}, {"type": "way", "id": 360370797, "nodes": [3649239760, 3649239762, 3649239759, 3649239765, 3649239758, 3649239761, 3649239764, 3649239763, 3649239760], "tags": {"addr:full": "NDIOUM", "amenity": "hospital", "electricity": "grid", "emergency": "yes", "healthcare": "Laboratory,Imaging Equipment,Emergency Department", "name": "Hopitale R\u00e9gionale de Ndioum", "operational_status": "Operational", "operator": "MINIST\u00c8RE DE LA SANTE ET DE L'ACTION SOCIALE", "operator:type": "public", "source": "#senegal #covid-19 #emergency-health-data #healthsites", "water_source": "water works", "wheelchair": "yes"}}, {"type": "way", "id": 502912936, "nodes": [4932607488, 4932607489, 4932607490, 4932607491, 4932607488], "tags": {"amenity": "clinic", "building": "yes", "name": "Agnam Tonguel Case de Sant\u00e9"}}]}