{"version": 0.6, "generator": "Overpass API 0.7.62.1 084b4234", "osm3s": {"timestamp_osm_base": "2024-05-23T15:41:09Z", "copyright": "The data included in this document is from www.openstreetmap.org. The data is made available under ODbL."}, "elements": [{"type": "node", "id": 8649982558, "lat": 44.1151637, "lon": 24.3539664}, {"type": "node", "id": 8649982559, "lat": 44.1151601, "lon": 24.3541853}, {"type": "node", "id": 8649982560, "lat": 44.1149774, "lon": 24.3541573}, {"type": "node", "id": 8649982561, "lat": 44.1150267, "lon": 24.3539511}, {"type": "node", "id": 9231089662, "lat": 44.1135014, "lon": 24.3415799, "tags": {"addr:city": "Caracal", "addr:housenumber": "1", "addr:postcode": "235200", "addr:street": "Aleea Bibian", "amenity": "clinic", "healthcare": "clinic", "healthcare:speciality": "vaccination", "name": "CENTRUL DE VACCINARE", "opening_hours": "Mo-Su 08:00-20:00"}}, {"type": "node", "id": 9246198690, "lat": 44.113296, "lon": 24.3493494, "tags": {"addr:city": "Caracal", "addr:housenumber": "2", "addr:postcode": "235200", "addr:street": "Strada Mihai Eminescu", "amenity": "clinic", "healthcare": "clinic", "name": "Centrul Medical Coram"}}, {"type": "node", "id": 9763342134, "lat": 44.1149831, "lon": 24.3540001}, {"type": "way", "id": 933167877, "nodes": [8649982558, 8649982559, 8649982560, 9763342134, 8649982561, 8649982558], "tags": {"addr:city": "Caracal", "addr:housenumber": "1", "addr:postcode": "235200", "addr:street": "Strada Vasile Alecsandri", "amenity": "clinic", "building": "yes", "healthcare": "clinic", "name": "San Medica", "opening_hours": "Mo-Sa 08:00-18:00+"}}]}