{"version": 0.6, "generator": "Overpass API 0.7.62.1 084b4234", "osm3s": {"timestamp_osm_base": "2024-05-24T08:16:17Z", "copyright": "The data included in this document is from www.openstreetmap.org. The data is made available under ODbL."}, "elements": [{"type": "node", "id": 2641992313, "lat": 15.3713254, "lon": -16.4422537}, {"type": "node", "id": 2641992315, "lat": 15.3714494, "lon": -16.4428853}, {"type": "node", "id": 2641992319, "lat": 15.3718855, "lon": -16.4421355}, {"type": "node", "id": 2641992322, "lat": 15.3720095, "lon": -16.442767}, {"type": "node", "id": 5192494462, "lat": 15.2829442, "lon": -16.5258439}, {"type": "node", "id": 5192494463, "lat": 15.2832081, "lon": -16.5256884}, {"type": "node", "id": 5192494472, "lat": 15.2831502, "lon": -16.5262136}, {"type": "node", "id": 5192494473, "lat": 15.2832123, "lon": -16.5256959}, {"type": "node", "id": 5192494474, "lat": 15.2834141, "lon": -16.5260527}, {"type": "node", "id": 5622852243, "lat": 15.2651997, "lon": -16.4068626, "tags": {"addr:city": "Thi\u00e8s", "addr:country": "SN", "addr:place": "Ngandiouf", "amenity": "clinic", "name": "Maternite du Poste de Sante"}}, {"type": "node", "id": 6467256685, "lat": 15.346156, "lon": -16.3226436}, {"type": "node", "id": 6467256686, "lat": 15.3460982, "lon": -16.3222222}, {"type": "node", "id": 6467256687, "lat": 15.3460916, "lon": -16.3221284}, {"type": "node", "id": 6467256688, "lat": 15.3462804, "lon": -16.3220908}, {"type": "node", "id": 6467256690, "lat": 15.3464155, "lon": -16.3226174}, {"type": "node", "id": 7548151057, "lat": 15.3471262, "lon": -16.3479775}, {"type": "node", "id": 7548151058, "lat": 15.3476604, "lon": -16.3480218}, {"type": "node", "id": 10053201940, "lat": 15.3470532, "lon": -16.3485467}, {"type": "node", "id": 10053201941, "lat": 15.3475626, "lon": -16.3485907}, {"type": "node", "id": 10723162296, "lat": 15.3506208, "lon": -16.3469011, "tags": {"amenity": "hospital", "healthcare": "hospital", "name": "Maternit\u00e9"}}, {"type": "way", "id": 258889747, "nodes": [2641992319, 2641992313, 2641992315, 2641992322, 2641992319], "tags": {"amenity": "hospital", "emergency": "yes", "healthcare": "hospital", "name": "Centre de Sant\u00e9 de K\u00e9b\u00e9mer"}}, {"type": "way", "id": 535842824, "nodes": [5192494474, 5192494473, 5192494463, 5192494462, 5192494472, 5192494474], "tags": {"addr:full": "Ndande,Diama", "amenity": "clinic", "beds": "6", "electricity": "grid", "emergency": "yes", "healthcare": "laboratory", "name": "Maternit\u00e9 de Ndande", "operational_status": "Operational", "operator": "MINISTERE DE LA SANTE ET DE L'ACTION SOCIALE", "operator:type": "Public", "source": "#senegal #covid-19 #emergency-health-data #healthsites", "water_source": "water works", "wheelchair": "limited"}}, {"type": "way", "id": 689394853, "nodes": [6467256685, 6467256686, 6467256687, 6467256688, 6467256690, 6467256685], "tags": {"amenity": "clinic", "name": "Poste de Sant\u00e9 de Thiolom Fall"}}, {"type": "way", "id": 807159736, "nodes": [10053201941, 10053201940, 7548151057, 7548151058, 10053201941], "tags": {"amenity": "hospital", "healthcare": "hospital"}}]}