{"version": 0.6, "generator": "Overpass API 0.7.62.1 084b4234", "osm3s": {"timestamp_osm_base": "2024-05-23T16:09:33Z", "copyright": "The data included in this document is from www.openstreetmap.org. The data is made available under ODbL."}, "elements": [{"type": "node", "id": 597286591, "lat": 45.6931465, "lon": 21.8890667}, {"type": "node", "id": 597286592, "lat": 45.6924592, "lon": 21.891279}, {"type": "node", "id": 597286593, "lat": 45.6899034, "lon": 21.8896516}, {"type": "node", "id": 597286594, "lat": 45.6905908, "lon": 21.8874393}, {"type": "node", "id": 597609827, "lat": 45.6904245, "lon": 21.8873927}, {"type": "node", "id": 597609829, "lat": 45.68984, "lon": 21.8870279}, {"type": "node", "id": 597609831, "lat": 45.6894652, "lon": 21.8882081}, {"type": "node", "id": 597609834, "lat": 45.6900648, "lon": 21.8885944}, {"type": "node", "id": 602089065, "lat": 45.6821988, "lon": 21.9017864, "tags": {"amenity": "hospital", "healthcare": "hospital", "name": "Spitalul de copii"}}, {"type": "node", "id": 2562955773, "lat": 45.6830974, "lon": 21.9005972, "tags": {"addr:city": "Lugoj", "addr:housenumber": "3", "addr:postcode": "305500", "addr:postcode:source": "Date de la Po\u0219ta Rom\u00e2n\u0103, publicate sub Licen\u021ba pentru Guvernare Deschis\u0103 v1.0 la http://date.gov.ro/organization/posta-romana", "addr:street": "Strada Bucegi", "amenity": "hospital", "healthcare": "hospital", "name": "Cabinet Stomatologic TRIDENT"}}, {"type": "way", "id": 46721163, "nodes": [597286591, 597286592, 597286593, 597286594, 597286591], "tags": {"amenity": "hospital", "healthcare": "hospital", "is_in:city": "Lugoj", "name": "Spitalul Municipal"}}, {"type": "way", "id": 46759536, "nodes": [597609827, 597609829, 597609831, 597609834, 597609827], "tags": {"amenity": "hospital", "healthcare": "hospital", "is_in:city": "Lugoj", "name": "Spitalul de Boli Infec\u021bioase"}}]}