{"version": 0.6, "generator": "Overpass API 0.7.62.1 084b4234", "osm3s": {"timestamp_osm_base": "2024-05-23T15:07:22Z", "copyright": "The data included in this document is from www.openstreetmap.org. The data is made available under ODbL."}, "elements": [{"type": "node", "id": 5783777921, "lat": 46.7443755, "lon": 23.4852016, "tags": {"amenity": "clinic", "healthcare": "clinic", "name": "Centrul Medical Flore\u0219ti", "opening_hours": "Mo-Fr 08:00-21:00"}}, {"type": "node", "id": 6515430638, "lat": 46.7501762, "lon": 23.5248905}, {"type": "node", "id": 6515430639, "lat": 46.7499269, "lon": 23.5250019}, {"type": "node", "id": 6515430640, "lat": 46.7498501, "lon": 23.5246358}, {"type": "node", "id": 6515430641, "lat": 46.7499097, "lon": 23.5246092}, {"type": "node", "id": 6515430642, "lat": 46.7498721, "lon": 23.5244302}, {"type": "node", "id": 6515430643, "lat": 46.7500619, "lon": 23.5243453}, {"type": "node", "id": 9137787718, "lat": 46.7362402, "lon": 23.4837933, "tags": {"amenity": "clinic", "healthcare": "clinic", "name": "Cabinet de pediatrie"}}, {"type": "node", "id": 9137787719, "lat": 46.7364194, "lon": 23.4842223, "tags": {"amenity": "clinic", "healthcare": "clinic", "name": "Regina Maria"}}, {"type": "node", "id": 9137848220, "lat": 46.7390504, "lon": 23.4842939, "tags": {"amenity": "clinic", "brand": "Synevo", "brand:wikidata": "Q85968400", "healthcare": "laboratory", "name": "Synevo"}}, {"type": "node", "id": 9137926319, "lat": 46.7393936, "lon": 23.4842236, "tags": {"amenity": "clinic", "healthcare": "clinic", "name": "IQ-Med"}}, {"type": "node", "id": 9159426173, "lat": 46.7390201, "lon": 23.4898773, "tags": {"addr:city": "Flore\u0219ti", "addr:housenumber": "192D", "addr:postcode": "407280", "addr:street": "Strada Florilor", "amenity": "clinic", "healthcare": "clinic", "healthcare:speciality": "general", "name": "Centrul Medical Mimed", "phone": "0264 483 289"}}, {"type": "node", "id": 9387796954, "lat": 46.7443924, "lon": 23.4855742, "tags": {"amenity": "clinic", "healthcare": "clinic", "name": "Giro"}}, {"type": "way", "id": 693957572, "nodes": [6515430638, 6515430639, 6515430640, 6515430641, 6515430642, 6515430643, 6515430638], "tags": {"addr:city": "Flore\u0219ti", "addr:country": "RO", "addr:housenumber": "486G", "addr:postcode": "407280", "addr:street": "Strada R\u0103zoare", "amenity": "clinic", "building": "yes", "healthcare": "clinic", "name": "Amethyst"}}]}