{"version": 0.6, "generator": "Overpass API 0.7.62.1 084b4234", "osm3s": {"timestamp_osm_base": "2024-05-23T13:14:12Z", "copyright": "The data included in this document is from www.openstreetmap.org. The data is made available under ODbL."}, "elements": [{"type": "node", "id": 4061045983, "lat": 46.555185, "lon": 26.9122466, "tags": {"amenity": "clinic", "healthcare": "clinic", "name": "Synevo Analize"}}, {"type": "node", "id": 4553314189, "lat": 46.5555752, "lon": 26.9150797, "tags": {"addr:street": "Erou Ciprian Pintea nr. 21", "amenity": "clinic", "healthcare": "clinic", "name": "Clinica Palade", "phone": "0234 206 125", "website": "http://www.clinicapalade.ro"}}, {"type": "node", "id": 5012149921, "lat": 46.7388601, "lon": 26.885815, "tags": {"addr:housenumber": "189", "amenity": "clinic", "name": "Medical-Xen Asisten\u021ba Medical\u0103"}}, {"type": "node", "id": 5071423825, "lat": 46.7647538, "lon": 26.839672, "tags": {"addr:housenumber": "74", "amenity": "clinic", "name": "PANTARU MARIA CMI", "name:ro": "PANTARU MARIA CMI"}}, {"type": "node", "id": 5107586924, "lat": 46.69482, "lon": 26.659335, "tags": {"amenity": "clinic", "name": "DRAGAN SILVIU CMV & NOVAC MARIUS CMI"}}, {"type": "node", "id": 5109316622, "lat": 46.7410714, "lon": 26.8439025, "tags": {"amenity": "clinic", "name": "CANCEL ANTON CMI"}}, {"type": "node", "id": 10585968988, "lat": 46.5616045, "lon": 26.9134943, "tags": {"addr:city": "Bac\u0103u", "addr:street": "Strada 9 Mai", "amenity": "clinic", "healthcare": "clinic", "name": "Clinica Luxor"}}, {"type": "node", "id": 10585968989, "lat": 46.5619919, "lon": 26.9138622, "tags": {"addr:city": "Bac\u0103u", "addr:street": "Strada 9 Mai", "amenity": "clinic", "healthcare": "clinic", "name": "Audionova"}}, {"type": "node", "id": 10607650194, "lat": 46.5344972, "lon": 26.9191318, "tags": {"addr:city": "Bac\u0103u", "addr:street": "Calea Republicii", "amenity": "clinic", "healthcare": "clinic", "healthcare:speciality": "dentist;radiology", "name": "Clinic\u0103 stomatologica - radiologie dentar\u0103"}}, {"type": "node", "id": 10607660205, "lat": 46.5323631, "lon": 26.9198131, "tags": {"addr:city": "Bac\u0103u", "addr:street": "Calea Republicii", "amenity": "clinic", "healthcare": "clinic", "name": "Clinica OncoFort"}}]}